[{"lng": "0", "geonameId": 6295630, "name": "Earth", "fclName": "parks,area, ...", "toponymName": "Earth", "fcodeName": "area", "adminName1": "", "lat": "0", "fcl": "L", "fcode": "AREA", "population": 6814400000}, {"lng": "-100.54688", "geonameId": 6255149, "name": "North America", "fclName": "parks,area, ...", "toponymName": "North America", "fcodeName": "continent", "adminName1": "", "lat": "46.07323", "fcl": "L", "fcode": "CONT", "population": 580000000}, {"adminCode1": "00", "lng": "-77.25", "geonameId": 3489940, "toponymName": "Jamaica", "countryId": "3489940", "fcl": "A", "population": 2847232, "countryCode": "JM", "name": "Jamaica", "fclName": "country, state, region,...", "countryName": "Jamaica", "fcodeName": "independent political entity", "adminName1": "", "lat": "18.16667", "fcode": "PCLI"}, {"adminCode1": "10", "lng": "-77.01667", "geonameId": 3488711, "toponymName": "Saint Catherine", "countryId": "3489940", "fcl": "A", "population": 529218, "countryCode": "JM", "name": "Saint Catherine", "fclName": "country, state, region,...", "adminCodes1": {"ISO3166_2": "14"}, "countryName": "Jamaica", "fcodeName": "first-order administrative division", "adminName1": "Saint Catherine", "lat": "18.06667", "fcode": "ADM1"}, {"adminCode1": "10", "lng": "-77.10383", "geonameId": 11495047, "toponymName": "Ewarton", "countryId": "3489940", "fcl": "A", "population": 14929, "countryCode": "JM", "name": "Ewarton", "fclName": "country, state, region,...", "adminCodes1": {"ISO3166_2": "14"}, "countryName": "Jamaica", "fcodeName": "second-order administrative division", "adminName1": "Saint Catherine", "lat": "18.16746", "fcode": "ADM2"}, {"adminCode1": "10", "lng": "-77.13333", "geonameId": 3489275, "toponymName": "New York", "countryId": "3489940", "fcl": "P", "population": 0, "countryCode": "JM", "name": "New York", "fclName": "city, village,...", "adminCodes1": {"ISO3166_2": "14"}, "countryName": "Jamaica", "fcodeName": "populated place", "adminName1": "Saint Catherine", "lat": "18.11667", "fcode": "PPL"}]