[{"lng": "0", "geonameId": 6295630, "name": "Earth", "fclName": "parks,area, ...", "toponymName": "Earth", "fcodeName": "area", "adminName1": "", "lat": "0", "fcl": "L", "fcode": "AREA", "population": 6814400000}, {"lng": "-100.54688", "geonameId": 6255149, "name": "North America", "fclName": "parks,area, ...", "toponymName": "North America", "fcodeName": "continent", "adminName1": "", "lat": "46.07323", "fcl": "L", "fcode": "CONT", "population": 580000000}, {"adminCode1": "00", "lng": "-98.5", "geonameId": 6252001, "toponymName": "United States", "countryId": "6252001", "fcl": "A", "population": 310232863, "countryCode": "US", "name": "United States", "fclName": "country, state, region,...", "countryName": "United States", "fcodeName": "independent political entity", "adminName1": "", "lat": "39.76", "fcode": "PCLI"}, {"adminCode1": "NY", "lng": "-75.4999", "geonameId": 5128638, "toponymName": "New York", "countryId": "6252001", "fcl": "A", "population": 19274244, "countryCode": "US", "name": "New York", "fclName": "country, state, region,...", "adminCodes1": {"ISO3166_2": "NY"}, "countryName": "United States", "fcodeName": "first-order administrative division", "adminName1": "New York", "lat": "43.00035", "fcode": "ADM1"}, {"adminCode1": "NY", "lng": "-73.50972", "geonameId": 5133668, "toponymName": "Rensselaer County", "countryId": "6252001", "fcl": "A", "population": 159429, "countryCode": "US", "name": "Rensselaer", "fclName": "country, state, region,...", "adminCodes1": {"ISO3166_2": "NY"}, "countryName": "United States", "fcodeName": "second-order administrative division", "adminName1": "New York", "lat": "42.71105", "fcode": "ADM2"}, {"adminCode1": "NY", "lng": "-73.37417", "geonameId": 5108866, "toponymName": "Town of Berlin", "countryId": "6252001", "fcl": "A", "population": 1870, "countryCode": "US", "name": "Town of Berlin", "fclName": "country, state, region,...", "adminCodes1": {"ISO3166_2": "NY"}, "countryName": "United States", "fcodeName": "third-order administrative division", "adminName1": "New York", "lat": "42.66713", "fcode": "ADM3"}, {"adminCode1": "NY", "lng": "-73.37205", "geonameId": 5108863, "toponymName": "Berlin", "countryId": "6252001", "fcl": "P", "population": 0, "countryCode": "US", "name": "Berlin", "fclName": "city, village,...", "adminCodes1": {"ISO3166_2": "NY"}, "countryName": "United States", "fcodeName": "populated place", "adminName1": "New York", "lat": "42.69314", "fcode": "PPL"}]